[
    {
	"street" : "via Caprera 70R",
	"name" : "Fonnesu",
	"phone": "+39 010 3760011", 
	"lon" : 8.9779375,
	"lat" : 44.3949375
    },
    {
	"name" : "",
	"lat" : 44.4091875,
	"lon" : "8.9330625",
	"street" : ""
    },
    {
	"name" : "Al Forno ",
	"lon" : 8.95881249999999,
	"lat" : 44.4003125,
	"street" : "Via Albaro, 24, 16145 Genova GE, Italy"
    },
    {
	"street" : "Via della Posta Vecchia, 12, 16123 Genova GE, Italy",
	"lon" : 8.93093750000003,
	"name" : "Claretta",
	"lat" : 44.4105625
    },
    {
	"lon" : 8.9324375,
	"street" : "Via di Canneto Il Lungo, 78R, 16123 Genova GE, Italy",
	"lat" : 44.4066875,
	"name" : "Bottiglieria La Marchesa"
    },
    {
	"lat" : 44.4091875,
	"street" : "Vico della Casana, 17, 16123 Genova GE, Italy",
	"name" : "Antico Forno della Casana",
	"lon" : "8.9330625"
    },
    {
	"street" : "Via di Porta Soprana, 61r, 16123 Genova GE, Italy",
	"lat" : 44.4058125,
	"lon" : "8.9339375",
	"name" : "Buratto"
    },
    {
	"lon" : "8.9436875",
	"name" : "Panificio Mario",
	"lat" : 44.4070625,
	"street" : "Via S. Vincenzo, 61r, 16121 Genova GE, Italy"
    },
    {
	"name" : "Trattoria Rosmarino",
	"lon" : "8.9336875",
	"street" : "Salita del Fondaco, 30, 16100 Genova GE, Italy",
	"lat" : 44.4075625
    },
    {
	"name" : "Trattoria dell'Acciughetta",
	"street" : "Piazza Sant'Elena, 16126 Genova GE, Italy",
	"lon" : 8.92481250000003,
	"lat" : 44.4146875
    },
    {
	"lon" : 8.92956250000003,
	"lat" : 44.4071875,
	"name" : "Sa Pesta",
	"street" : "Via dei Giustiniani, 16/R, 16123 Genova GE, Italy"
    },
    {
	"lon" : "8.9289375",
	"street" : "Via di Sottoripa, 113 r, 16124 Genova GE, Italy",
	"lat" : 44.4108125,
	"name" : "Antica Friggitoria Carega"
    },
    {
	"lon" : 8.92593750000003,
	"name" : "Osteria di Vico Palla",
	"street" : "Vico Palla, 15, 16128 Genova GE, Italy",
	"lat" : 44.4071875
    },
    {
	"lon" : 8.9428125,
	"street" : "Via Galata, 35r, 16121 Genova GE, Italy",
	"lat" : 44.4056875,
	"name" : "Il Genovese"
    },
    {
	"street" : "Via Luccoli, 98, 16123 Genova GE, Italy",
	"lon" : 8.9348125,
	"name" : "L'amico Ritrovato",
	"lat" : 44.4101875
    },
    {
	"lon" : 8.9366875,
	"street" : "Via Ceccardo Roccatagliata Ceccardi, 18r, 16121 Genova GE, Italy",
	"name" : "laFeltrinelli Books and Music",
	"lat" : 44.4060625
    },
    {
	"street" : "Via S. Giorgio, 14/R, 16128 Genova GE, Italy",
	"lon" : 8.9288125,
	"name" : "Antica Sciamadda",
	"lat" : 44.4074375
    },
    {
	"lat" : 44.4119375,
	"name" : "Libraccio",
	"street" : "Via Cairoli, 6r, 16124 Genova GE, Italy",
	"lon" : 8.93068750000003
    },
    {
	"name" : "Corderia Nazionale",
	"lon" : 8.9274375,
	"lat" : 44.4125625,
	"street" : "Via Antonio Gramsci, 53r, 16126 Genova GE, Italy"
    },
    {
	"street" : "Vico della Casana, 17, 16123 Genova GE, Italy",
	"lat" : 44.4091875,
	"lon" : 8.9330625,
	"name" : "Antico Forno della Casana"
    },
    {
	"lat" : 44.4056875,
	"lon" : 8.9428125,
	"name" : "il Genovese",
	"street" : "Via Galata, 35r, 16121 Genova GE, Italy"
    },
    {
	"street" : "Via XX Settembre, 75r, 16121 Genova GE, Italy",
	"name" : "Mercato orientale",
	"lat" : 44.4054375,
	"lon" : 8.9419375
    }
]

